{
  "university": [
    {
      "name": "서울시립대학교",
      "address": "서울 동대문구 서울시립대로 163 (전농동 90번지) ",
      "lng": 127.0608644,
      "lat": 37.58301804
    },
    {
      "name": "서울여자대학교",
      "address": "서울특별시 노원구 화랑로 621 서울여자대학교",
      "lng": 127.0904758,
      "lat": 37.62932172
    },
    {
      "name": "성공회대학교",
      "address": "서울 구로구 항동 성공회대학교",
      "lng": 126.8259374,
      "lat": 37.48108349
    },
    {
      "name": "성균관대학교",
      "address": "서울 종로구 명륜동3가 성균관대학교",
      "lng": 127.2733254,
      "lat": 37.01507043
    },
    {
      "name": "성신여자대학교",
      "address": "서울 성북구 동선동3가 성신여자대학교",
      "lng": 127.198067,
      "lat": 37.5843394
    },
    {
      "name": "세종대학교",
      "address": "서울 광진구 군자동 세종대학교",
      "lng": 127.073825,
      "lat": 37.55327456
    },
    {
      "name": "숙명여자대학교",
      "address": "서울 용산구 청파로47길 100 숙명여자대학교",
      "lng": 126.9657682,
      "lat": 37.54597494
    },
    {
      "name": "숭실대학교",
      "address": "서울 동작구 상도동 511 숭실대학교",
      "lng": 126.957198,
      "lat": 37.49634372
    },
    {
      "name": "연세대학교",
      "address": "서울 서대문구 신촌동 연세대학교",
      "lng": 126.9392712,
      "lat": 37.56516193
    },
    {
      "name": "이화여자대학교",
      "address": "서울 서대문구 대현동 11-1 이화여자대학교",
      "lng": 126.9474281,
      "lat": 37.5625504
    },
    {
      "name": "장로회신학대학교",
      "address": "서울 광진구 광장로 5길 25-1(광장동) 장로회신학대학교",
      "lng": 127.1030015,
      "lat": 37.54975194
    },
    {
      "name": "중앙대학교 서울캠퍼스",
      "address": "서울 동작구 흑석로 84",
      "lng": 126.9578565,
      "lat": 37.50407107
    },
    {
      "name": "총신대학교",
      "address": "서울 동작구 사당동 산31-3",
      "lng": 126.9671024,
      "lat": 37.49075065
    },
    {
      "name": "추계예술대학교",
      "address": "서울 서대문구 북아현동 190-1 추계예술대학교",
      "lng": 126.9533017,
      "lat": 37.56270264
    },
    {
      "name": "한국성서대학교",
      "address": "서울 노원구 상계7동 한국성서대학교",
      "lng": 127.0722769,
      "lat": 37.66636668
    },
    {
      "name": "한국외국어대학교",
      "address": "서울 동대문구 이문로 107",
      "lng": 127.056986,
      "lat": 37.5979456
    },
    {
      "name": "한국체육대학교",
      "address": "서울 송파구 오륜동 한국체육대학교",
      "lng": 127.1272223,
      "lat": 37.51632496
    },
    {
      "name": "한성대학교",
      "address": "서울 성북구 삼선동3가 389 한성대학교",
      "lng": 127.0160798,
      "lat": 37.58633878
    },
    {
      "name": "한양대학교",
      "address": "서울특별시 성동구 왕십리로 222 ",
      "lng": 127.0482297,
      "lat": 37.55827566
    },
    {
      "name": "한영신학대학교",
      "address": "서울 구로구 경인로 290-42  한영신학대학교",
      "lng": 126.8517298,
      "lat": 37.49661393
    },
    {
      "name": "홍익대학교",
      "address": "서울특별시 마포구 와우산로 94(상수동)",
      "lng": 126.9272223,
      "lat": 37.55147166
    },
    {
      "name": "감리교신학대학교",
      "address": "서울 서대문구 냉천동 감리교신학대학",
      "lng": 128.5700375,
      "lat": 35.55942119
    },
    {
      "name": "건국대학교",
      "address": "서울 광진구 화양동",
      "lng": 127.0730799,
      "lat": 37.54361035
    },
    {
      "name": "경기대학교",
      "address": "서울 서대문구 경기대로9길 24 경기대학교",
      "lng": 126.9622293,
      "lat": 37.56447707
    },
    {
      "name": "경희대학교",
      "address": "서울 동대문구 회기동 경희대학교",
      "lng": 127.0509581,
      "lat": 37.59453657
    },
    {
      "name": "고려대학교",
      "address": "서울 성북구 안암동 고려대학교",
      "lng": 127.0214784,
      "lat": 37.58870137
    },
    {
      "name": "광운대학교",
      "address": "서울특별시 노원구 월계동 447-1",
      "lng": 127.0596443,
      "lat": 37.61969406
    },
    {
      "name": "국민대학교",
      "address": "서울 성북구 정릉3동 국민대학교",
      "lng": 126.9972712,
      "lat": 37.61677268
    },
    {
      "name": "그리스도대학교",
      "address": "서울 강서구 화곡6동 그리스도대학교",
      "lng": 126.8441304,
      "lat": 37.54216688
    },
    {
      "name": "덕성여자대학교",
      "address": "서울특별시 도봉구 삼양로 144길 33",
      "lng": 127.018341,
      "lat": 37.65089321
    },
    {
      "name": "동국대학교",
      "address": "서울 중구 필동3가 동국대학교",
      "lng": 126.9966242,
      "lat": 37.55777004
    },
    {
      "name": "동덕여자대학교",
      "address": "서울 성북구 하월곡2동 동덕여자대학교",
      "lng": 129.3482849,
      "lat": 35.57837808
    },
    {
      "name": "명지대학교 인문캠퍼스",
      "address": "서울 서대문구 남가좌동 50-3",
      "lng": 126.9230947,
      "lat": 37.5802157
    },
    {
      "name": "삼육대학교",
      "address": "서울시 노원구 화랑로 815(공릉2동 26-21)",
      "lng": 127.1054211,
      "lat": 37.6450008
    },
    {
      "name": "상명대학교",
      "address": "서울 종로구 홍지동 상명대학교",
      "lng": 126.9989704,
      "lat": 37.57067532
    },
    {
      "name": "서강대학교",
      "address": "서울 마포구 신수동 서강대학교",
      "lng": 126.9363438,
      "lat": 37.54799414
    },
    {
      "name": "서경대학교",
      "address": "서울 성북구 정릉4동 서경대학교",
      "lng": 126.9972712,
      "lat": 37.61677268
    },
    {
      "name": "서울과학기술대학교",
      "address": "서울 노원구 공릉로 232 (공릉동 172)",
      "lng": 127.0809231,
      "lat": 37.63380173
    },
    {
      "name": "서울기독대학교",
      "address": "서울 은평구 갈현로 4길 26-2호",
      "lng": 126.9121925,
      "lat": 37.60075749
    },
    {
      "name": "서울대학교",
      "address": "서울 관악구 관악로 1 서울대학교",
      "lng": 126.9502884,
      "lat": 37.45425061
    }
  ]
}